{
    "status": "RESULT_STATUS_COMPLETE",
    "places": {
        "27536165": {
            "entityId": "27536165",
            "parentId": "29475324",
            "name": "Siocon",
            "type": "PLACE_TYPE_CITY",
            "iata": "XSO",
            "coordinates": {
                "latitude": 7.706111098,
                "longitude": 122.1352778114
            }
        },
        "27536166": {
            "entityId": "27536166",
            "parentId": "29475436",
            "name": "Iqaluit",
            "type": "PLACE_TYPE_CITY",
            "iata": "YFB",
            "coordinates": {
                "latitude": 63.750593481,
                "longitude": -68.5144896391
            }
        },
        "27536167": {
            "entityId": "27536167",
            "parentId": "29475405",
            "name": "Alegrete",
            "type": "PLACE_TYPE_CITY",
            "iata": "ALQ",
            "coordinates": {
                "latitude": -29.7830555337,
                "longitude": -55.791944542
            }
        },
        "27536168": {
            "entityId": "27536168",
            "parentId": "29475436",
            "name": "Esquimalt",
            "type": "PLACE_TYPE_CITY",
            "iata": "YPF",
            "coordinates": {
                "latitude": 48.4496343229,
                "longitude": -123.4193038178
            }
        },
        "27536170": {
            "entityId": "27536170",
            "parentId": "29475336",
            "name": "Bright",
            "type": "PLACE_TYPE_CITY",
            "iata": "BRJ",
            "coordinates": {
                "latitude": -36.7499999932,
                "longitude": 146.9666667009
            }
        },
        "27536171": {
            "entityId": "27536171",
            "parentId": "29475420",
            "name": "Catacamas",
            "type": "PLACE_TYPE_CITY",
            "iata": "CAA",
            "coordinates": {
                "latitude": 14.7999999964,
                "longitude": -85.9000000155
            }
        },
        "27536172": {
            "entityId": "27536172",
            "parentId": "29475405",
            "name": "Cachoeira",
            "type": "PLACE_TYPE_CITY",
            "iata": "CCQ",
            "coordinates": {
                "latitude": -12.6183333261,
                "longitude": -38.9558333308
            }
        },
        "27536174": {
            "entityId": "27536174",
            "parentId": "29475405",
            "name": "Cruz Alta",
            "type": "PLACE_TYPE_CITY",
            "iata": "CZB",
            "coordinates": {
                "latitude": -28.6386110778,
                "longitude": -53.6063886476
            }
        },
        "27536175": {
            "entityId": "27536175",
            "parentId": "29475437",
            "name": "Yakima",
            "type": "PLACE_TYPE_CITY",
            "iata": "YKM",
            "coordinates": {
                "latitude": 46.6020710638,
                "longitude": -120.5058991209
            }
        },
        "27536176": {
            "entityId": "27536176",
            "parentId": "29475349",
            "name": "Madeira",
            "type": "PLACE_TYPE_CITY",
            "iata": "FNC",
            "coordinates": {
                "latitude": 32.73389866161756,
                "longitude": -16.986282135371876
            }
        },
        "27536178": {
            "entityId": "27536178",
            "parentId": "29475437",
            "name": "Haycock",
            "type": "PLACE_TYPE_CITY",
            "iata": "HAY",
            "coordinates": {
                "latitude": 65.2097221924,
                "longitude": -161.1655553254
            }
        },
        "27536179": {
            "entityId": "27536179",
            "parentId": "29475361",
            "name": "Freetown",
            "type": "PLACE_TYPE_CITY",
            "iata": "FNA",
            "coordinates": {
                "latitude": 8.4899999824,
                "longitude": -13.2341668831
            }
        },
        "27536180": {
            "entityId": "27536180",
            "parentId": "29475273",
            "name": "Ibo",
            "type": "PLACE_TYPE_CITY",
            "iata": "IBO",
            "coordinates": {
                "latitude": -12.3416666969,
                "longitude": 40.5911110784
            }
        },
        "27536181": {
            "entityId": "27536181",
            "parentId": "29475437",
            "name": "Wink",
            "type": "PLACE_TYPE_CITY",
            "iata": "INK",
            "coordinates": {
                "latitude": 31.7512395932,
                "longitude": -103.15988764
            }
        },
        "27536182": {
            "entityId": "27536182",
            "parentId": "29475330",
            "name": "Izumo",
            "type": "PLACE_TYPE_CITY",
            "iata": "IZO",
            "coordinates": {
                "latitude": 35.456274592863586,
                "longitude": 132.67144661765388
            }
        },
        "27536183": {
            "entityId": "27536183",
            "parentId": "29475265",
            "name": "Karonga",
            "type": "PLACE_TYPE_CITY",
            "iata": "KGJ",
            "coordinates": {
                "latitude": -9.9333332968,
                "longitude": 33.9333332841
            }
        },
        "27536184": {
            "entityId": "27536184",
            "parentId": "29475423",
            "name": "Kamarata",
            "type": "PLACE_TYPE_CITY",
            "iata": "KTV",
            "coordinates": {
                "latitude": 5.6499999986,
                "longitude": -62.4166667074
            }
        },
        "27536185": {
            "entityId": "27536185",
            "parentId": "29475336",
            "name": "Latrobe",
            "type": "PLACE_TYPE_CITY",
            "iata": "LTB",
            "coordinates": {
                "latitude": -41.2333332929,
                "longitude": 146.4166667182
            }
        },
        "27536186": {
            "entityId": "27536186",
            "parentId": "29475364",
            "name": "Macenta",
            "type": "PLACE_TYPE_CITY",
            "iata": "MCA",
            "coordinates": {
                "latitude": 8.5461110956,
                "longitude": -9.4694443875
            }
        },
        "27536187": {
            "entityId": "27536187",
            "parentId": "29475321",
            "name": "Medan",
            "type": "PLACE_TYPE_CITY",
            "iata": "MES",
            "coordinates": {
                "latitude": 3.6279813184775174,
                "longitude": 98.66808784803533
            }
        },
        "27536188": {
            "entityId": "27536188",
            "parentId": "29475377",
            "name": "Malmo",
            "type": "PLACE_TYPE_CITY",
            "iata": "MMA",
            "coordinates": {
                "latitude": 55.60266337702212,
                "longitude": 12.988134488105453
            }
        },
        "27536189": {
            "entityId": "27536189",
            "parentId": "29475277",
            "name": "Zhob",
            "type": "PLACE_TYPE_CITY",
            "iata": "PZH",
            "coordinates": {
                "latitude": 31.3411110819,
                "longitude": 69.4480555727
            }
        },
        "27536190": {
            "entityId": "27536190",
            "parentId": "29475432",
            "name": "Salina Cruz",
            "type": "PLACE_TYPE_CITY",
            "iata": "SCX",
            "coordinates": {
                "latitude": 16.1666666751,
                "longitude": -95.1999998088
            }
        },
        "27536191": {
            "entityId": "27536191",
            "parentId": "29475247",
            "name": "Sukhumi",
            "type": "PLACE_TYPE_CITY",
            "iata": "SUI",
            "coordinates": {
                "latitude": 43.0033332713,
                "longitude": 41.0152775548
            }
        },
        "27536192": {
            "entityId": "27536192",
            "parentId": "29475390",
            "name": "Svolvaer",
            "type": "PLACE_TYPE_CITY",
            "iata": "SVJ",
            "coordinates": {
                "latitude": 68.2333332949,
                "longitude": 14.5666667732
            }
        },
        "27536194": {
            "entityId": "27536194",
            "parentId": "29475338",
            "name": "Atoifi",
            "type": "PLACE_TYPE_CITY",
            "iata": "ATD",
            "coordinates": {
                "latitude": -8.8499999977,
                "longitude": 161.0166666738
            }
        },
        "27536195": {
            "entityId": "27536195",
            "parentId": "29475437",
            "name": "Enid",
            "type": "PLACE_TYPE_CITY",
            "iata": "WDG",
            "coordinates": {
                "latitude": 36.3955890834,
                "longitude": -97.8783911681
            }
        },
        "27536196": {
            "entityId": "27536196",
            "parentId": "29475398",
            "name": "Windhoek",
            "type": "PLACE_TYPE_CITY",
            "iata": "WDH",
            "coordinates": {
                "latitude": -22.5699999303,
                "longitude": 17.0836106582
            }
        },
        "27536197": {
            "entityId": "27536197",
            "parentId": "29475437",
            "name": "Winder",
            "type": "PLACE_TYPE_CITY",
            "iata": "WDR",
            "coordinates": {
                "latitude": 33.9926097909,
                "longitude": -83.7201709249
            }
        },
        "27536198": {
            "entityId": "27536198",
            "parentId": "29475326",
            "name": "Weifang",
            "type": "PLACE_TYPE_CITY",
            "iata": "WEF",
            "coordinates": {
                "latitude": 36.7099999515,
                "longitude": 119.1019440488
            }
        },
        "27536199": {
            "entityId": "27536199",
            "parentId": "29475326",
            "name": "Weihai",
            "type": "PLACE_TYPE_CITY",
            "iata": "WEH",
            "coordinates": {
                "latitude": 37.5016666709,
                "longitude": 122.1136111982
            }
        },
        "27536200": {
            "entityId": "27536200",
            "parentId": "29475336",
            "name": "Weipa",
            "type": "PLACE_TYPE_CITY",
            "iata": "WEI",
            "coordinates": {
                "latitude": -12.6666666969,
                "longitude": 141.8666666882
            }
        },
        "27536201": {
            "entityId": "27536201",
            "parentId": "29475437",
            "name": "Ketchikan",
            "type": "PLACE_TYPE_CITY",
            "iata": "KTN",
            "coordinates": {
                "latitude": 55.3422221906,
                "longitude": -131.6461109226
            }
        },
        "27536202": {
            "entityId": "27536202",
            "parentId": "29475274",
            "name": "Fianarantsoa",
            "type": "PLACE_TYPE_CITY",
            "iata": "WFI",
            "coordinates": {
                "latitude": -21.433333274,
                "longitude": 47.0833331329
            }
        },
        "27536203": {
            "entityId": "27536203",
            "parentId": "29475437",
            "name": "Frenchville",
            "type": "PLACE_TYPE_CITY",
            "iata": "WFK",
            "coordinates": {
                "latitude": 47.2808733928,
                "longitude": -68.3797649255
            }
        },
        "27536204": {
            "entityId": "27536204",
            "parentId": "29475336",
            "name": "Wagga Wagga",
            "type": "PLACE_TYPE_CITY",
            "iata": "WGA",
            "coordinates": {
                "latitude": -35.116666677,
                "longitude": 147.3666666694
            }
        },
        "27536205": {
            "entityId": "27536205",
            "parentId": "29475277",
            "name": "Bahawalnagar",
            "type": "PLACE_TYPE_CITY",
            "iata": "WGB",
            "coordinates": {
                "latitude": 29.9833332428,
                "longitude": 73.2666670102
            }
        },
        "27536206": {
            "entityId": "27536206",
            "parentId": "29475437",
            "name": "Winchester",
            "type": "PLACE_TYPE_CITY",
            "iata": "WGO",
            "coordinates": {
                "latitude": 39.1856596858,
                "longitude": -78.1633342368
            }
        },
        "27536207": {
            "entityId": "27536207",
            "parentId": "29475321",
            "name": "Waingapu",
            "type": "PLACE_TYPE_CITY",
            "iata": "WGP",
            "coordinates": {
                "latitude": -9.649999993,
                "longitude": 120.2666667947
            }
        },
        "27536208": {
            "entityId": "27536208",
            "parentId": "29475228",
            "name": "Wadi Halfa",
            "type": "PLACE_TYPE_CITY",
            "iata": "WHF",
            "coordinates": {
                "latitude": 21.7999999948,
                "longitude": 31.3500000269
            }
        },
        "27536209": {
            "entityId": "27536209",
            "parentId": "29475337",
            "name": "Bimin",
            "type": "PLACE_TYPE_CITY",
            "iata": "BIZ",
            "coordinates": {
                "latitude": -5.3666666986,
                "longitude": 142.1166666859
            }
        },
        "27536210": {
            "entityId": "27536210",
            "parentId": "29475342",
            "name": "Whakatane",
            "type": "PLACE_TYPE_CITY",
            "iata": "WHK",
            "coordinates": {
                "latitude": -37.9833332904,
                "longitude": 177
            }
        },
        "27536211": {
            "entityId": "27536211",
            "parentId": "29475437",
            "name": "Los Angeles",
            "type": "PLACE_TYPE_CITY",
            "iata": "LAX",
            "coordinates": {
                "latitude": 34.115663462162004,
                "longitude": -118.40939273919447
            }
        },
        "27536212": {
            "entityId": "27536212",
            "parentId": "29475437",
            "name": "Wharton",
            "type": "PLACE_TYPE_CITY",
            "iata": "WHT",
            "coordinates": {
                "latitude": 29.3116365922,
                "longitude": -96.1027371636
            }
        },
        "27536213": {
            "entityId": "27536213",
            "parentId": "29475375",
            "name": "Wick",
            "type": "PLACE_TYPE_CITY",
            "iata": "WIC",
            "coordinates": {
                "latitude": 58.4333332933,
                "longitude": -3.0833332932
            }
        },
        "27536214": {
            "entityId": "27536214",
            "parentId": "29475381",
            "name": "Wiesbaden",
            "type": "PLACE_TYPE_CITY",
            "iata": "UWE",
            "coordinates": {
                "latitude": 50.0833359004,
                "longitude": 8.25000012
            }
        },
        "27536215": {
            "entityId": "27536215",
            "parentId": "29475203",
            "name": "Nairobi",
            "type": "PLACE_TYPE_CITY",
            "iata": "NBO",
            "coordinates": {
                "latitude": -1.2980613774135144,
                "longitude": 36.85962986612636
            }
        },
        "27536216": {
            "entityId": "27536216",
            "parentId": "29475437",
            "name": "Lancaster",
            "type": "PLACE_TYPE_CITY",
            "iata": "WJF",
            "coordinates": {
                "latitude": 34.6980405372,
                "longitude": -118.1367390498
            }
        },
        "27536217": {
            "entityId": "27536217",
            "parentId": "29475329",
            "name": "WonJu",
            "type": "PLACE_TYPE_CITY",
            "iata": "WJU",
            "coordinates": {
                "latitude": 37.3513888256,
                "longitude": 127.9452780956
            }
        },
        "27536218": {
            "entityId": "27536218",
            "parentId": "29475342",
            "name": "Wanaka",
            "type": "PLACE_TYPE_CITY",
            "iata": "WKA",
            "coordinates": {
                "latitude": -44.699999992,
                "longitude": 169.1500000686
            }
        },
        "27536219": {
            "entityId": "27536219",
            "parentId": "29475330",
            "name": "Wakkanai",
            "type": "PLACE_TYPE_CITY",
            "iata": "WKJ",
            "coordinates": {
                "latitude": 45.33247942997845,
                "longitude": 141.8282880482876
            }
        },
        "27536220": {
            "entityId": "27536220",
            "parentId": "29475437",
            "name": "Aleknagik",
            "type": "PLACE_TYPE_CITY",
            "iata": "WKK",
            "coordinates": {
                "latitude": 59.2730555937,
                "longitude": -158.6177778312
            }
        },
        "27536222": {
            "entityId": "27536222",
            "parentId": "29475342",
            "name": "Wellington",
            "type": "PLACE_TYPE_CITY",
            "iata": "WLG",
            "coordinates": {
                "latitude": -41.25619582417576,
                "longitude": 174.74970271242594
            }
        },
        "27536223": {
            "entityId": "27536223",
            "parentId": "29475437",
            "name": "Selawik",
            "type": "PLACE_TYPE_CITY",
            "iata": "WLK",
            "coordinates": {
                "latitude": 66.6038888943,
                "longitude": -160.006944256
            }
        },
        "27536224": {
            "entityId": "27536224",
            "parentId": "29475437",
            "name": "Waltham",
            "type": "PLACE_TYPE_CITY",
            "iata": "WLM",
            "coordinates": {
                "latitude": 42.3764851692,
                "longitude": -71.2356110214
            }
        },
        "27536226": {
            "entityId": "27536226",
            "parentId": "29475437",
            "name": "Loring",
            "type": "PLACE_TYPE_CITY",
            "iata": "WLR",
            "coordinates": {
                "latitude": 55.6024999912,
                "longitude": -131.6361109302
            }
        },
        "27536227": {
            "entityId": "27536227",
            "parentId": "29475437",
            "name": "Willows",
            "type": "PLACE_TYPE_CITY",
            "iata": "WLW",
            "coordinates": {
                "latitude": 39.5243264926,
                "longitude": -122.1935931244
            }
        },
        "27536228": {
            "entityId": "27536228",
            "parentId": "29475274",
            "name": "Mandritsara",
            "type": "PLACE_TYPE_CITY",
            "iata": "WMA",
            "coordinates": {
                "latitude": -15.833333296,
                "longitude": 48.8166667313
            }
        },
        "27536229": {
            "entityId": "27536229",
            "parentId": "29475352",
            "name": "Accra",
            "type": "PLACE_TYPE_CITY",
            "iata": "ACC",
            "coordinates": {
                "latitude": 5.5594625230422325,
                "longitude": -0.19464607406230638
            }
        },
        "27536230": {
            "entityId": "27536230",
            "parentId": "29475437",
            "name": "Winnemucca",
            "type": "PLACE_TYPE_CITY",
            "iata": "WMC",
            "coordinates": {
                "latitude": 40.9729583925,
                "longitude": -117.7356848763
            }
        },
        "27536231": {
            "entityId": "27536231",
            "parentId": "29475437",
            "name": "Mountain Home",
            "type": "PLACE_TYPE_CITY",
            "iata": "WMH",
            "coordinates": {
                "latitude": 36.3353448921,
                "longitude": -92.3851593182
            }
        },
        "27536232": {
            "entityId": "27536232",
            "parentId": "29475437",
            "name": "Meyers Chuck",
            "type": "PLACE_TYPE_CITY",
            "iata": "WMK",
            "coordinates": {
                "latitude": 55.740833291,
                "longitude": -132.2563890782
            }
        },
        "27536233": {
            "entityId": "27536233",
            "parentId": "29475274",
            "name": "Malaimbandy",
            "type": "PLACE_TYPE_CITY",
            "iata": "WML",
            "coordinates": {
                "latitude": -20.3333332953,
                "longitude": 45.5999999906
            }
        },
        "27536234": {
            "entityId": "27536234",
            "parentId": "29475437",
            "name": "White Mountain",
            "type": "PLACE_TYPE_CITY",
            "iata": "WMO",
            "coordinates": {
                "latitude": 64.6813888934,
                "longitude": -163.4055557937
            }
        },
        "27536235": {
            "entityId": "27536235",
            "parentId": "29475437",
            "name": "Napakiak",
            "type": "PLACE_TYPE_CITY",
            "iata": "WNA",
            "coordinates": {
                "latitude": 60.6966666905,
                "longitude": -161.9519441349
            }
        },
        "27536236": {
            "entityId": "27536236",
            "parentId": "29475324",
            "name": "Naga",
            "type": "PLACE_TYPE_CITY",
            "iata": "WNP",
            "coordinates": {
                "latitude": 13.6191666613,
                "longitude": 123.1813888705
            }
        },
        "27536237": {
            "entityId": "27536237",
            "parentId": "29475326",
            "name": "Wenzhou",
            "type": "PLACE_TYPE_CITY",
            "iata": "WNZ",
            "coordinates": {
                "latitude": 28.0191666389,
                "longitude": 120.6544448222
            }
        },
        "27536238": {
            "entityId": "27536238",
            "parentId": "29475336",
            "name": "Wollongong",
            "type": "PLACE_TYPE_CITY",
            "iata": "WOL",
            "coordinates": {
                "latitude": -34.4333346531,
                "longitude": 150.8833336115
            }
        },
        "27536239": {
            "entityId": "27536239",
            "parentId": "29475437",
            "name": "Willow",
            "type": "PLACE_TYPE_CITY",
            "iata": "WOW",
            "coordinates": {
                "latitude": 61.7472221905,
                "longitude": -150.0375002884
            }
        },
        "27536240": {
            "entityId": "27536240",
            "parentId": "29475429",
            "name": "Puerto Aisen",
            "type": "PLACE_TYPE_CITY",
            "iata": "WPA",
            "coordinates": {
                "latitude": -45.3999999917,
                "longitude": -72.7000000862
            }
        },
        "27536241": {
            "entityId": "27536241",
            "parentId": "29475436",
            "name": "Pincher Creek",
            "type": "PLACE_TYPE_CITY",
            "iata": "WPC",
            "coordinates": {
                "latitude": 49.4832798665,
                "longitude": -113.9519486207
            }
        },
        "27536242": {
            "entityId": "27536242",
            "parentId": "29475437",
            "name": "Paonia",
            "type": "PLACE_TYPE_CITY",
            "iata": "WPO",
            "coordinates": {
                "latitude": 38.8683203918,
                "longitude": -107.5920016267
            }
        },
        "27536244": {
            "entityId": "27536244",
            "parentId": "29475342",
            "name": "Whangarei",
            "type": "PLACE_TYPE_CITY",
            "iata": "WRE",
            "coordinates": {
                "latitude": -35.7316730601,
                "longitude": 174.3239094752
            }
        },
        "27536245": {
            "entityId": "27536245",
            "parentId": "29475437",
            "name": "Wrangell",
            "type": "PLACE_TYPE_CITY",
            "iata": "WRG",
            "coordinates": {
                "latitude": 56.4708332911,
                "longitude": -132.3766668791
            }
        },
        "27536247": {
            "entityId": "27536247",
            "parentId": "29475437",
            "name": "Worland",
            "type": "PLACE_TYPE_CITY",
            "iata": "WRL",
            "coordinates": {
                "latitude": 44.0169013908,
                "longitude": -107.9553719936
            }
        },
        "27536248": {
            "entityId": "27536248",
            "parentId": "29475260",
            "name": "Wroclaw",
            "type": "PLACE_TYPE_CITY",
            "iata": "WRO",
            "coordinates": {
                "latitude": 51.12769292802469,
                "longitude": 16.996077099901623
            }
        },
        "27536249": {
            "entityId": "27536249",
            "parentId": "29475281",
            "name": "Weerawila",
            "type": "PLACE_TYPE_CITY",
            "iata": "WRZ",
            "coordinates": {
                "latitude": 6.2833332984,
                "longitude": 81.2166666973
            }
        },
        "27536250": {
            "entityId": "27536250",
            "parentId": "29475437",
            "name": "White Sands",
            "type": "PLACE_TYPE_CITY",
            "iata": "WSD",
            "coordinates": {
                "latitude": 32.3809254932,
                "longitude": -106.4794376671
            }
        },
        "27536251": {
            "entityId": "27536251",
            "parentId": "29475437",
            "name": "Washington",
            "type": "PLACE_TYPE_CITY",
            "iata": "WSG",
            "coordinates": {
                "latitude": 40.1739599912,
                "longitude": -80.2461714278
            }
        },
        "27536252": {
            "entityId": "27536252",
            "parentId": "29475437",
            "name": "South Naknek",
            "type": "PLACE_TYPE_CITY",
            "iata": "WSN",
            "coordinates": {
                "latitude": 58.7155555923,
                "longitude": -156.9980557572
            }
        },
        "27536253": {
            "entityId": "27536253",
            "parentId": "29475421",
            "name": "Waspam",
            "type": "PLACE_TYPE_CITY",
            "iata": "WSP",
            "coordinates": {
                "latitude": 14.7333332958,
                "longitude": -83.9666666564
            }
        },
        "27536254": {
            "entityId": "27536254",
            "parentId": "29475437",
            "name": "Westerly",
            "type": "PLACE_TYPE_CITY",
            "iata": "WST",
            "coordinates": {
                "latitude": 41.3775995884,
                "longitude": -71.8272909808
            }
        },
        "27536255": {
            "entityId": "27536255",
            "parentId": "29475342",
            "name": "Westport",
            "type": "PLACE_TYPE_CITY",
            "iata": "WSZ",
            "coordinates": {
                "latitude": -41.7526170495,
                "longitude": 171.603698711
            }
        },
        "27536256": {
            "entityId": "27536256",
            "parentId": "29475274",
            "name": "Tambohorano",
            "type": "PLACE_TYPE_CITY",
            "iata": "WTA",
            "coordinates": {
                "latitude": -17.4999999958,
                "longitude": 43.9666667153
            }
        },
        "27536257": {
            "entityId": "27536257",
            "parentId": "29475409",
            "name": "West End",
            "type": "PLACE_TYPE_CITY",
            "iata": "WTD",
            "coordinates": {
                "latitude": 26.6833332927,
                "longitude": -78.9666667445
            }
        },
        "27536258": {
            "entityId": "27536258",
            "parentId": "29475437",
            "name": "Noatak",
            "type": "PLACE_TYPE_CITY",
            "iata": "WTK",
            "coordinates": {
                "latitude": 67.5711110929,
                "longitude": -162.9652781169
            }
        },
        "27536259": {
            "entityId": "27536259",
            "parentId": "29475437",
            "name": "Tuntutuliak",
            "type": "PLACE_TYPE_CITY",
            "iata": "WTL",
            "coordinates": {
                "latitude": 60.3430555918,
                "longitude": -162.6630558049
            }
        },
        "27536260": {
            "entityId": "27536260",
            "parentId": "29475274",
            "name": "Tsiroanomandidy",
            "type": "PLACE_TYPE_CITY",
            "iata": "WTS",
            "coordinates": {
                "latitude": -18.7666666919,
                "longitude": 46.0333332715
            }
        },
        "27536261": {
            "entityId": "27536261",
            "parentId": "29475326",
            "name": "Wuhan",
            "type": "PLACE_TYPE_CITY",
            "iata": "WUH",
            "coordinates": {
                "latitude": 30.62260359874913,
                "longitude": 114.34265687693446
            }
        },
        "27536262": {
            "entityId": "27536262",
            "parentId": "99540794",
            "name": "Wau",
            "type": "PLACE_TYPE_CITY",
            "iata": "WUU",
            "coordinates": {
                "latitude": 7.6999999829,
                "longitude": 27.9999998867
            }
        },
        "27536263": {
            "entityId": "27536263",
            "parentId": "29475326",
            "name": "Wuxi",
            "type": "PLACE_TYPE_CITY",
            "iata": "WUX",
            "coordinates": {
                "latitude": 31.5772237346,
                "longitude": 120.2938894039
            }
        },
        "27536264": {
            "entityId": "27536264",
            "parentId": "29475326",
            "name": "Wuzhou",
            "type": "PLACE_TYPE_CITY",
            "iata": "WUZ",
            "coordinates": {
                "latitude": 23.4833332341,
                "longitude": 111.3166666324
            }
        },
        "27536265": {
            "entityId": "27536265",
            "parentId": "29475398",
            "name": "Walvis Bay",
            "type": "PLACE_TYPE_CITY",
            "iata": "WVB",
            "coordinates": {
                "latitude": -22.9574999845,
                "longitude": 14.505277825
            }
        },
        "27536266": {
            "entityId": "27536266",
            "parentId": "29475437",
            "name": "Watsonville",
            "type": "PLACE_TYPE_CITY",
            "iata": "WVI",
            "coordinates": {
                "latitude": 36.9102309835,
                "longitude": -121.7568946755
            }
        },
        "27536267": {
            "entityId": "27536267",
            "parentId": "29475437",
            "name": "Waterville",
            "type": "PLACE_TYPE_CITY",
            "iata": "WVL",
            "coordinates": {
                "latitude": 44.5520104908,
                "longitude": -69.6317120708
            }
        },
        "27536268": {
            "entityId": "27536268",
            "parentId": "29475381",
            "name": "Wilhelmshaven",
            "type": "PLACE_TYPE_CITY",
            "iata": "WVN",
            "coordinates": {
                "latitude": 53.5166666728,
                "longitude": 8.1333334918
            }
        },
        "27536269": {
            "entityId": "27536269",
            "parentId": "29475437",
            "name": "Wasilla",
            "type": "PLACE_TYPE_CITY",
            "iata": "WWA",
            "coordinates": {
                "latitude": 61.581388891,
                "longitude": -149.4394441476
            }
        },
        "27536270": {
            "entityId": "27536270",
            "parentId": "29475437",
            "name": "Wildwood",
            "type": "PLACE_TYPE_CITY",
            "iata": "WWD",
            "coordinates": {
                "latitude": 38.9917796928,
                "longitude": -74.8148894054
            }
        },
        "27536271": {
            "entityId": "27536271",
            "parentId": "29475437",
            "name": "Woodward",
            "type": "PLACE_TYPE_CITY",
            "iata": "WWR",
            "coordinates": {
                "latitude": 36.4336480921,
                "longitude": -99.3903861884
            }
        },
        "27536272": {
            "entityId": "27536272",
            "parentId": "29475437",
            "name": "Newtok",
            "type": "PLACE_TYPE_CITY",
            "iata": "WWT",
            "coordinates": {
                "latitude": 60.9427777939,
                "longitude": -164.6294444339
            }
        },
        "27536273": {
            "entityId": "27536273",
            "parentId": "29475336",
            "name": "West Wyalong",
            "type": "PLACE_TYPE_CITY",
            "iata": "WWY",
            "coordinates": {
                "latitude": -33.9166666934,
                "longitude": 147.2166666949
            }
        },
        "27536274": {
            "entityId": "27536274",
            "parentId": "29475375",
            "name": "Braintree",
            "type": "PLACE_TYPE_CITY",
            "iata": "WXF",
            "coordinates": {
                "latitude": 51.8833332793,
                "longitude": 0.5666670076
            }
        },
        "27536275": {
            "entityId": "27536275",
            "parentId": "29475326",
            "name": "Wanxian",
            "type": "PLACE_TYPE_CITY",
            "iata": "WXN",
            "coordinates": {
                "latitude": 30.8038888546,
                "longitude": 108.3897225487
            }
        },
        "27536276": {
            "entityId": "27536276",
            "parentId": "29475361",
            "name": "Yengema",
            "type": "PLACE_TYPE_CITY",
            "iata": "WYE",
            "coordinates": {
                "latitude": 8.6166666977,
                "longitude": -11.0499999735
            }
        },
        "27536277": {
            "entityId": "27536277",
            "parentId": "29475437",
            "name": "West Yellowstone",
            "type": "PLACE_TYPE_CITY",
            "iata": "WYS",
            "coordinates": {
                "latitude": 44.6621493929,
                "longitude": -111.1041091962
            }
        },
        "27536280": {
            "entityId": "27536280",
            "parentId": "29475405",
            "name": "Chapeco",
            "type": "PLACE_TYPE_CITY",
            "iata": "XAP",
            "coordinates": {
                "latitude": -27.125005094301923,
                "longitude": -52.650396093346245
            }
        },
        "27536281": {
            "entityId": "27536281",
            "parentId": "29475355",
            "name": "Aribinda",
            "type": "PLACE_TYPE_CITY",
            "iata": "XAR",
            "coordinates": {
                "latitude": 14.2264999963,
                "longitude": -0.8718000297
            }
        },
        "27536282": {
            "entityId": "27536282",
            "parentId": "29475144",
            "name": "Saul",
            "type": "PLACE_TYPE_CITY",
            "iata": "XAU",
            "coordinates": {
                "latitude": 3.616666699,
                "longitude": -53.1999999725
            }
        },
        "27536283": {
            "entityId": "27536283",
            "parentId": "29475436",
            "name": "Bearskin Lake",
            "type": "PLACE_TYPE_CITY",
            "iata": "XBE",
            "coordinates": {
                "latitude": 53.916839992,
                "longitude": -90.9668501186
            }
        },
        "27536284": {
            "entityId": "27536284",
            "parentId": "29475355",
            "name": "Bogande",
            "type": "PLACE_TYPE_CITY",
            "iata": "XBG",
            "coordinates": {
                "latitude": 12.9713888961,
                "longitude": -0.1436111433
            }
        },
        "27536285": {
            "entityId": "27536285",
            "parentId": "29475194",
            "name": "Birjand",
            "type": "PLACE_TYPE_CITY",
            "iata": "XBJ",
            "coordinates": {
                "latitude": 32.8738888504,
                "longitude": 59.2144440553
            }
        },
        "27536288": {
            "entityId": "27536288",
            "parentId": "29475355",
            "name": "Boulsa",
            "type": "PLACE_TYPE_CITY",
            "iata": "XBO",
            "coordinates": {
                "latitude": 12.6674999955,
                "longitude": -0.5758333442
            }
        },
        "27536290": {
            "entityId": "27536290",
            "parentId": "29475385",
            "name": "Ch√¢lons-en-Champagne",
            "type": "PLACE_TYPE_CITY",
            "iata": "XCR",
            "coordinates": {
                "latitude": 48.9499999781,
                "longitude": 4.3666665221
            }
        },
        "27536292": {
            "entityId": "27536292",
            "parentId": "29475355",
            "name": "Diebougou",
            "type": "PLACE_TYPE_CITY",
            "iata": "XDE",
            "coordinates": {
                "latitude": 10.9666666968,
                "longitude": -3.2499999961
            }
        },
        "27536293": {
            "entityId": "27536293",
            "parentId": "29475355",
            "name": "Djibo",
            "type": "PLACE_TYPE_CITY",
            "iata": "XDJ",
            "coordinates": {
                "latitude": 14.1022221946,
                "longitude": -1.6305556295
            }
        },
        "27536294": {
            "entityId": "27536294",
            "parentId": "29475326",
            "name": "Xiangfan",
            "type": "PLACE_TYPE_CITY",
            "iata": "XFN",
            "coordinates": {
                "latitude": 32.0416666415,
                "longitude": 112.1449997774
            }
        },
        "27536295": {
            "entityId": "27536295",
            "parentId": "29475381",
            "name": "Hamburg",
            "type": "PLACE_TYPE_CITY",
            "iata": "HAM",
            "coordinates": {
                "latitude": 53.5455258839,
                "longitude": 10.0185620385
            }
        },
        "27536296": {
            "entityId": "27536296",
            "parentId": "29475355",
            "name": "Gorom-Gorom",
            "type": "PLACE_TYPE_CITY",
            "iata": "XGG",
            "coordinates": {
                "latitude": 14.4438888959,
                "longitude": -0.2361111406
            }
        },
        "27536297": {
            "entityId": "27536297",
            "parentId": "29475397",
            "name": "Xangongo",
            "type": "PLACE_TYPE_CITY",
            "iata": "XGN",
            "coordinates": {
                "latitude": -16.749999996,
                "longitude": 14.9833333002
            }
        },
        "27536298": {
            "entityId": "27536298",
            "parentId": "29475436",
            "name": "Kangiqsualujjuaq",
            "type": "PLACE_TYPE_CITY",
            "iata": "XGR",
            "coordinates": {
                "latitude": 58.6914324666,
                "longitude": -65.9524682788
            }
        },
        "27536299": {
            "entityId": "27536299",
            "parentId": "29475326",
            "name": "Xichang",
            "type": "PLACE_TYPE_CITY",
            "iata": "XIC",
            "coordinates": {
                "latitude": 27.8983332409,
                "longitude": 102.2705560587
            }
        },
        "27536300": {
            "entityId": "27536300",
            "parentId": "29475432",
            "name": "Alamos",
            "type": "PLACE_TYPE_CITY",
            "iata": "XAL",
            "coordinates": {
                "latitude": 27.0166666932,
                "longitude": -108.9333333418
            }
        },
        "27536301": {
            "entityId": "27536301",
            "parentId": "29475326",
            "name": "Xi An",
            "type": "PLACE_TYPE_CITY",
            "iata": "SIA",
            "coordinates": {
                "latitude": 34.258339337,
                "longitude": 108.9286124696
            }
        },
        "27536302": {
            "entityId": "27536302",
            "parentId": "29475355",
            "name": "Kantchari",
            "type": "PLACE_TYPE_CITY",
            "iata": "XKA",
            "coordinates": {
                "latitude": 12.4786110969,
                "longitude": 1.5122222202
            }
        },
        "27536303": {
            "entityId": "27536303",
            "parentId": "29475322",
            "name": "Xieng Khouang",
            "type": "PLACE_TYPE_CITY",
            "iata": "XKH",
            "coordinates": {
                "latitude": 19.3333332953,
                "longitude": 103.3666667251
            }
        },
        "27536304": {
            "entityId": "27536304",
            "parentId": "29475436",
            "name": "Kemano",
            "type": "PLACE_TYPE_CITY",
            "iata": "XKO",
            "coordinates": {
                "latitude": 53.5663899929,
                "longitude": -127.9533700599
            }
        },
        "27536305": {
            "entityId": "27536305",
            "parentId": "29475436",
            "name": "Kasabonika",
            "type": "PLACE_TYPE_CITY",
            "iata": "XKS",
            "coordinates": {
                "latitude": 53.5309399925,
                "longitude": -88.6077699082
            }
        },
        "27536306": {
            "entityId": "27536306",
            "parentId": "29475355",
            "name": "Kaya",
            "type": "PLACE_TYPE_CITY",
            "iata": "XKY",
            "coordinates": {
                "latitude": 13.0916666943,
                "longitude": -1.0844444449
            }
        },
        "27536307": {
            "entityId": "27536307",
            "parentId": "29475355",
            "name": "Leo",
            "type": "PLACE_TYPE_CITY",
            "iata": "XLU",
            "coordinates": {
                "latitude": 11.0999999951,
                "longitude": -2.1000000216
            }
        },
        "27536308": {
            "entityId": "27536308",
            "parentId": "29475437",
            "name": "Madison",
            "type": "PLACE_TYPE_CITY",
            "iata": "XMD",
            "coordinates": {
                "latitude": 44.0060846918,
                "longitude": -97.113949669
            }
        },
        "27536309": {
            "entityId": "27536309",
            "parentId": "29475314",
            "name": "Mahendranagar",
            "type": "PLACE_TYPE_CITY",
            "iata": "XMG",
            "coordinates": {
                "latitude": 28.916666674,
                "longitude": 80.3333333562
            }
        },
        "27536310": {
            "entityId": "27536310",
            "parentId": "29475199",
            "name": "Masasi",
            "type": "PLACE_TYPE_CITY",
            "iata": "XMI",
            "coordinates": {
                "latitude": -10.7166666962,
                "longitude": 38.8000000038
            }
        },
        "27536311": {
            "entityId": "27536311",
            "parentId": "29475326",
            "name": "Xiamen",
            "type": "PLACE_TYPE_CITY",
            "iata": "XMN",
            "coordinates": {
                "latitude": 24.64940989348284,
                "longitude": 118.12679158709975
            }
        },
        "27536312": {
            "entityId": "27536312",
            "parentId": "29475424",
            "name": "Macas",
            "type": "PLACE_TYPE_CITY",
            "iata": "XMS",
            "coordinates": {
                "latitude": -2.3166666989,
                "longitude": -78.1166667582
            }
        },
        "27536314": {
            "entityId": "27536314",
            "parentId": "29475437",
            "name": "Fayetteville",
            "type": "PLACE_TYPE_CITY",
            "iata": "FYV",
            "coordinates": {
                "latitude": 36.0625794673,
                "longitude": -94.1574261629
            }
        },
        "27536315": {
            "entityId": "27536315",
            "parentId": "29475326",
            "name": "Xining",
            "type": "PLACE_TYPE_CITY",
            "iata": "XNN",
            "coordinates": {
                "latitude": 36.616666641,
                "longitude": 101.7666661755
            }
        },
        "27536316": {
            "entityId": "27536316",
            "parentId": "29475355",
            "name": "Nouna",
            "type": "PLACE_TYPE_CITY",
            "iata": "XNU",
            "coordinates": {
                "latitude": 12.733333294,
                "longitude": -3.8666666771
            }
        },
        "27536318": {
            "entityId": "27536318",
            "parentId": "29475355",
            "name": "Pama",
            "type": "PLACE_TYPE_CITY",
            "iata": "XPA",
            "coordinates": {
                "latitude": 11.249722197,
                "longitude": 0.7075000306
            }
        },
        "27536319": {
            "entityId": "27536319",
            "parentId": "29475420",
            "name": "Comayagua",
            "type": "PLACE_TYPE_CITY",
            "iata": "XPL",
            "coordinates": {
                "latitude": 14.4499999866,
                "longitude": -87.6333332659
            }
        },
        "27536320": {
            "entityId": "27536320",
            "parentId": "29475437",
            "name": "Pine Ridge",
            "type": "PLACE_TYPE_CITY",
            "iata": "XPR",
            "coordinates": {
                "latitude": 43.0255407916,
                "longitude": -102.5562743832
            }
        },
        "27536321": {
            "entityId": "27536321",
            "parentId": "29475422",
            "name": "Quepos",
            "type": "PLACE_TYPE_CITY",
            "iata": "XQP",
            "coordinates": {
                "latitude": 9.4499999972,
                "longitude": -84.1500000398
            }
        },
        "27536322": {
            "entityId": "27536322",
            "parentId": "29475436",
            "name": "Qualicum",
            "type": "PLACE_TYPE_CITY",
            "iata": "XQU",
            "coordinates": {
                "latitude": 49.3468311815,
                "longitude": -124.4360623477
            }
        },
        "27536323": {
            "entityId": "27536323",
            "parentId": "29475436",
            "name": "Ross River",
            "type": "PLACE_TYPE_CITY",
            "iata": "XRR",
            "coordinates": {
                "latitude": 61.9896199914,
                "longitude": -132.4120302552
            }
        },
        "27536324": {
            "entityId": "27536324",
            "parentId": "29475369",
            "name": "Jerez",
            "type": "PLACE_TYPE_CITY",
            "iata": "XRY",
            "coordinates": {
                "latitude": 36.681965921394415,
                "longitude": -5.966686324071211
            }
        },
        "27536325": {
            "entityId": "27536325",
            "parentId": "29475437",
            "name": "Tonopah",
            "type": "PLACE_TYPE_CITY",
            "iata": "TPH",
            "coordinates": {
                "latitude": 38.067155293,
                "longitude": -117.2300824936
            }
        },
        "27536326": {
            "entityId": "27536326",
            "parentId": "29475355",
            "name": "Sebba",
            "type": "PLACE_TYPE_CITY",
            "iata": "XSE",
            "coordinates": {
                "latitude": 13.4364121965,
                "longitude": 0.530443034
            }
        },
        "27536327": {
            "entityId": "27536327",
            "parentId": "29475436",
            "name": "South Indian Lake",
            "type": "PLACE_TYPE_CITY",
            "iata": "XSI",
            "coordinates": {
                "latitude": 56.7794899935,
                "longitude": -98.928110005
            }
        },
        "27536328": {
            "entityId": "27536328",
            "parentId": "29475336",
            "name": "Thargomindah",
            "type": "PLACE_TYPE_CITY",
            "iata": "XTG",
            "coordinates": {
                "latitude": -27.9999999932,
                "longitude": 143.8166666458
            }
        },
        "27536329": {
            "entityId": "27536329",
            "parentId": "29475336",
            "name": "Tara",
            "type": "PLACE_TYPE_CITY",
            "iata": "XTR",
            "coordinates": {
                "latitude": -27.2833332935,
                "longitude": 150.4666667478
            }
        },
        "27536330": {
            "entityId": "27536330",
            "parentId": "29475326",
            "name": "Xuzhou",
            "type": "PLACE_TYPE_CITY",
            "iata": "XUZ",
            "coordinates": {
                "latitude": 34.266946384,
                "longitude": 117.1916666582
            }
        },
        "27536332": {
            "entityId": "27536332",
            "parentId": "29475315",
            "name": "Ye",
            "type": "PLACE_TYPE_CITY",
            "iata": "XYE",
            "coordinates": {
                "latitude": 15.2499999963,
                "longitude": 97.8500000163
            }
        },
        "27536333": {
            "entityId": "27536333",
            "parentId": "29475355",
            "name": "Zabre",
            "type": "PLACE_TYPE_CITY",
            "iata": "XZA",
            "coordinates": {
                "latitude": 11.182499997,
                "longitude": -0.6322222316
            }
        },
        "27536334": {
            "entityId": "27536334",
            "parentId": "29475436",
            "name": "Cat Lake",
            "type": "PLACE_TYPE_CITY",
            "iata": "YAC",
            "coordinates": {
                "latitude": 51.7203899927,
                "longitude": -91.8169800611
            }
        },
        "27536335": {
            "entityId": "27536335",
            "parentId": "29475437",
            "name": "Fort Frances",
            "type": "PLACE_TYPE_CITY",
            "iata": "YAG",
            "coordinates": {
                "latitude": 48.5998757844,
                "longitude": -93.4002975752
            }
        },
        "27536336": {
            "entityId": "27536336",
            "parentId": "29475429",
            "name": "Chillan",
            "type": "PLACE_TYPE_CITY",
            "iata": "YAI",
            "coordinates": {
                "latitude": -36.5999999672,
                "longitude": -72.1166669993
            }
        },
        "27536337": {
            "entityId": "27536337",
            "parentId": "29475437",
            "name": "Yakutat",
            "type": "PLACE_TYPE_CITY",
            "iata": "YAK",
            "coordinates": {
                "latitude": 59.5469443932,
                "longitude": -139.7272223058
            }
        },
        "27536338": {
            "entityId": "27536338",
            "parentId": "29475436",
            "name": "Alert Bay",
            "type": "PLACE_TYPE_CITY",
            "iata": "YAL",
            "coordinates": {
                "latitude": 50.5829253639,
                "longitude": -126.9197894269
            }
        },
        "27536339": {
            "entityId": "27536339",
            "parentId": "29475437",
            "name": "Sault Ste Marie",
            "type": "PLACE_TYPE_CITY",
            "iata": "SSM",
            "coordinates": {
                "latitude": 46.4952996886,
                "longitude": -84.3453170366
            }
        },
        "27536340": {
            "entityId": "27536340",
            "parentId": "29475205",
            "name": "Yangambi",
            "type": "PLACE_TYPE_CITY",
            "iata": "YAN",
            "coordinates": {
                "latitude": 0.7833332997,
                "longitude": 24.466666744
            }
        },
        "27536341": {
            "entityId": "27536341",
            "parentId": "29475345",
            "name": "Yaounde",
            "type": "PLACE_TYPE_CITY",
            "iata": "YAO",
            "coordinates": {
                "latitude": 3.8538197094366975,
                "longitude": 11.50021745755699
            }
        },
        "27536342": {
            "entityId": "27536342",
            "parentId": "29475319",
            "name": "Long Xuyen",
            "type": "PLACE_TYPE_CITY",
            "iata": "XLO",
            "coordinates": {
                "latitude": 10.3833332887,
                "longitude": 105.4166666755
            }
        },
        "27536343": {
            "entityId": "27536343",
            "parentId": "29475436",
            "name": "Attawapiskat",
            "type": "PLACE_TYPE_CITY",
            "iata": "YAT",
            "coordinates": {
                "latitude": 52.9277399926,
                "longitude": -82.4166899218
            }
        },
        "27536345": {
            "entityId": "27536345",
            "parentId": "29475436",
            "name": "Halifax",
            "type": "PLACE_TYPE_CITY",
            "iata": "YHZ",
            "coordinates": {
                "latitude": 44.645119416574516,
                "longitude": -63.633576699241765
            }
        },
        "27536346": {
            "entityId": "27536346",
            "parentId": "29475436",
            "name": "St Anthony",
            "type": "PLACE_TYPE_CITY",
            "iata": "YAY",
            "coordinates": {
                "latitude": 51.3667799355,
                "longitude": -55.5812724948
            }
        },
        "27536347": {
            "entityId": "27536347",
            "parentId": "29475436",
            "name": "Tofino",
            "type": "PLACE_TYPE_CITY",
            "iata": "YAZ",
            "coordinates": {
                "latitude": 49.1520714492,
                "longitude": -125.9031485205
            }
        },
        "27536348": {
            "entityId": "27536348",
            "parentId": "29475436",
            "name": "Banff",
            "type": "PLACE_TYPE_CITY",
            "iata": "YBA",
            "coordinates": {
                "latitude": 51.166743458,
                "longitude": -115.5687884721
            }
        },
        "27536349": {
            "entityId": "27536349",
            "parentId": "29475436",
            "name": "Kugaaruk",
            "type": "PLACE_TYPE_CITY",
            "iata": "YBB",
            "coordinates": {
                "latitude": 68.5357699908,
                "longitude": -89.8247095193
            }
        },
        "27536350": {
            "entityId": "27536350",
            "parentId": "29475436",
            "name": "Baie Comeau",
            "type": "PLACE_TYPE_CITY",
            "iata": "YBC",
            "coordinates": {
                "latitude": 49.2167918939,
                "longitude": -68.1489398761
            }
        },
        "27536351": {
            "entityId": "27536351",
            "parentId": "29475436",
            "name": "Uranium City",
            "type": "PLACE_TYPE_CITY",
            "iata": "YBE",
            "coordinates": {
                "latitude": 59.5670699917,
                "longitude": -108.6183001979
            }
        },
        "27536352": {
            "entityId": "27536352",
            "parentId": "29475436",
            "name": "Bamfield",
            "type": "PLACE_TYPE_CITY",
            "iata": "YBF",
            "coordinates": {
                "latitude": 48.8329099918,
                "longitude": -125.1360899054
            }
        },
        "27536353": {
            "entityId": "27536353",
            "parentId": "29475436",
            "name": "Baker Lake",
            "type": "PLACE_TYPE_CITY",
            "iata": "YBK",
            "coordinates": {
                "latitude": 64.3200899905,
                "longitude": -96.0212303511
            }
        },
        "27536354": {
            "entityId": "27536354",
            "parentId": "29475436",
            "name": "Campbell River",
            "type": "PLACE_TYPE_CITY",
            "iata": "YBL",
            "coordinates": {
                "latitude": 50.0163393017,
                "longitude": -125.2445874518
            }
        },
        "27536357": {
            "entityId": "27536357",
            "parentId": "29475326",
            "name": "Yibin",
            "type": "PLACE_TYPE_CITY",
            "iata": "YBP",
            "coordinates": {
                "latitude": 28.7666666369,
                "longitude": 104.5666667892
            }
        },
        "27536358": {
            "entityId": "27536358",
            "parentId": "29475436",
            "name": "Brandon",
            "type": "PLACE_TYPE_CITY",
            "iata": "YBR",
            "coordinates": {
                "latitude": 49.8469209522,
                "longitude": -99.9530610814
            }
        },
        "27536359": {
            "entityId": "27536359",
            "parentId": "29475436",
            "name": "Bonnyville",
            "type": "PLACE_TYPE_CITY",
            "iata": "YBY",
            "coordinates": {
                "latitude": 54.266844522,
                "longitude": -110.7350525294
            }
        },
        "27536360": {
            "entityId": "27536360",
            "parentId": "29475436",
            "name": "Cambridge Bay",
            "type": "PLACE_TYPE_CITY",
            "iata": "YCB",
            "coordinates": {
                "latitude": 69.1148899953,
                "longitude": -105.0548399901
            }
        },
        "27536361": {
            "entityId": "27536361",
            "parentId": "29475436",
            "name": "Centralia",
            "type": "PLACE_TYPE_CITY",
            "iata": "YCE",
            "coordinates": {
                "latitude": 43.2833899928,
                "longitude": -81.4664599841
            }
        },
        "27536362": {
            "entityId": "27536362",
            "parentId": "29475436",
            "name": "Castlegar",
            "type": "PLACE_TYPE_CITY",
            "iata": "YCG",
            "coordinates": {
                "latitude": 49.2998378582,
                "longitude": -117.6689360061
            }
        },
        "27536363": {
            "entityId": "27536363",
            "parentId": "29475436",
            "name": "Miramichi",
            "type": "PLACE_TYPE_CITY",
            "iata": "YCH",
            "coordinates": {
                "latitude": 47.0043076365,
                "longitude": -65.4654403153
            }
        },
        "27536364": {
            "entityId": "27536364",
            "parentId": "29475436",
            "name": "St Catharines",
            "type": "PLACE_TYPE_CITY",
            "iata": "YCM",
            "coordinates": {
                "latitude": 43.1668149003,
                "longitude": -79.2495843553
            }
        },
        "27536365": {
            "entityId": "27536365",
            "parentId": "29475437",
            "name": "New Iberia",
            "type": "PLACE_TYPE_CITY",
            "iata": "ARA",
            "coordinates": {
                "latitude": 30.0035364926,
                "longitude": -91.8187285283
            }
        },
        "27536366": {
            "entityId": "27536366",
            "parentId": "29475437",
            "name": "Ann Arbor",
            "type": "PLACE_TYPE_CITY",
            "iata": "ARB",
            "coordinates": {
                "latitude": 42.2775627371,
                "longitude": -83.7408822447
            }
        },
        "27536367": {
            "entityId": "27536367",
            "parentId": "29475437",
            "name": "Arctic Village",
            "type": "PLACE_TYPE_CITY",
            "iata": "ARC",
            "coordinates": {
                "latitude": 68.126944394,
                "longitude": -145.5377780397
            }
        },
        "27536368": {
            "entityId": "27536368",
            "parentId": "29475436",
            "name": "Cochrane",
            "type": "PLACE_TYPE_CITY",
            "iata": "YCN",
            "coordinates": {
                "latitude": 49.150185479,
                "longitude": -81.0330709485
            }
        },
        "27536369": {
            "entityId": "27536369",
            "parentId": "29475436",
            "name": "Kugluktuk",
            "type": "PLACE_TYPE_CITY",
            "iata": "YCO",
            "coordinates": {
                "latitude": 67.8274299931,
                "longitude": -115.0964903034
            }
        },
        "27536370": {
            "entityId": "27536370",
            "parentId": "29475436",
            "name": "Chetwynd",
            "type": "PLACE_TYPE_CITY",
            "iata": "YCQ",
            "coordinates": {
                "latitude": 55.6998810357,
                "longitude": -121.6362728301
            }
        },
        "27536372": {
            "entityId": "27536372",
            "parentId": "29475436",
            "name": "Chesterfield Inlet",
            "type": "PLACE_TYPE_CITY",
            "iata": "YCS",
            "coordinates": {
                "latitude": 63.3395499921,
                "longitude": -90.701190251
            }
        },
        "27536373": {
            "entityId": "27536373",
            "parentId": "29475436",
            "name": "Coronation",
            "type": "PLACE_TYPE_CITY",
            "iata": "YCT",
            "coordinates": {
                "latitude": 52.083430759,
                "longitude": -111.4517414112
            }
        },
        "27536374": {
            "entityId": "27536374",
            "parentId": "29475436",
            "name": "Chilliwack",
            "type": "PLACE_TYPE_CITY",
            "iata": "YCW",
            "coordinates": {
                "latitude": 49.1746815501,
                "longitude": -121.9442694348
            }
        },
        "27536375": {
            "entityId": "27536375",
            "parentId": "29475436",
            "name": "Gagetown",
            "type": "PLACE_TYPE_CITY",
            "iata": "YCX",
            "coordinates": {
                "latitude": 45.7701418111,
                "longitude": -66.1616622681
            }
        },
        "27536377": {
            "entityId": "27536377",
            "parentId": "29475436",
            "name": "Dawson City",
            "type": "PLACE_TYPE_CITY",
            "iata": "YDA",
            "coordinates": {
                "latitude": 64.0625199933,
                "longitude": -139.426290182
            }
        },
        "27536378": {
            "entityId": "27536378",
            "parentId": "29475436",
            "name": "Deer Lake",
            "type": "PLACE_TYPE_CITY",
            "iata": "YDF",
            "coordinates": {
                "latitude": 49.1667063598,
                "longitude": -57.4316322022
            }
        },
        "27536379": {
            "entityId": "27536379",
            "parentId": "29475436",
            "name": "Digby",
            "type": "PLACE_TYPE_CITY",
            "iata": "YDG",
            "coordinates": {
                "latitude": 44.6168496602,
                "longitude": -65.7655494997
            }
        },
        "27536380": {
            "entityId": "27536380",
            "parentId": "29475436",
            "name": "Daniels Harbour",
            "type": "PLACE_TYPE_CITY",
            "iata": "YDH",
            "coordinates": {
                "latitude": 50.2333347489,
                "longitude": -57.5815605133
            }
        },
        "27536381": {
            "entityId": "27536381",
            "parentId": "29475436",
            "name": "Nanaimo",
            "type": "PLACE_TYPE_CITY",
            "iata": "YCD",
            "coordinates": {
                "latitude": 49.1663373535,
                "longitude": -123.9360125263
            }
        },
        "27536382": {
            "entityId": "27536382",
            "parentId": "29475436",
            "name": "Dease Lake",
            "type": "PLACE_TYPE_CITY",
            "iata": "YDL",
            "coordinates": {
                "latitude": 58.4356899933,
                "longitude": -129.9874899239
            }
        },
        "27536383": {
            "entityId": "27536383",
            "parentId": "29475436",
            "name": "Dauphin",
            "type": "PLACE_TYPE_CITY",
            "iata": "YDN",
            "coordinates": {
                "latitude": 51.1494090552,
                "longitude": -100.0502278843
            }
        },
        "27536384": {
            "entityId": "27536384",
            "parentId": "29475425",
            "name": "Villavicencio",
            "type": "PLACE_TYPE_CITY",
            "iata": "VVC",
            "coordinates": {
                "latitude": 4.1533332954,
                "longitude": -73.635000073
            }
        },
        "27536385": {
            "entityId": "27536385",
            "parentId": "29475273",
            "name": "Nampula",
            "type": "PLACE_TYPE_CITY",
            "iata": "APL",
            "coordinates": {
                "latitude": -15.1197221775,
                "longitude": 39.2647221766
            }
        },
        "27536386": {
            "entityId": "27536386",
            "parentId": "29475437",
            "name": "Alpena",
            "type": "PLACE_TYPE_CITY",
            "iata": "APN",
            "coordinates": {
                "latitude": 45.0616793905,
                "longitude": -83.4327526988
            }
        },
        "27536387": {
            "entityId": "27536387",
            "parentId": "29475437",
            "name": "Jasper",
            "type": "PLACE_TYPE_CITY",
            "iata": "APT",
            "coordinates": {
                "latitude": 35.0742447929,
                "longitude": -85.6260789339
            }
        },
        "27536388": {
            "entityId": "27536388",
            "parentId": "29475405",
            "name": "Apucarana",
            "type": "PLACE_TYPE_CITY",
            "iata": "APU",
            "coordinates": {
                "latitude": -23.5508332971,
                "longitude": -51.460833281
            }
        },
        "27536389": {
            "entityId": "27536389",
            "parentId": "29475437",
            "name": "Apple Valley",
            "type": "PLACE_TYPE_CITY",
            "iata": "APV",
            "coordinates": {
                "latitude": 34.5008310694,
                "longitude": -117.1858758796
            }
        },
        "27536390": {
            "entityId": "27536390",
            "parentId": "29475435",
            "name": "Apia",
            "type": "PLACE_TYPE_CITY",
            "iata": "APW",
            "coordinates": {
                "latitude": -13.8333332939,
                "longitude": -171.7333332816
            }
        },
        "27536391": {
            "entityId": "27536391",
            "parentId": "29475405",
            "name": "Arapongas",
            "type": "PLACE_TYPE_CITY",
            "iata": "APX",
            "coordinates": {
                "latitude": -23.4194444129,
                "longitude": -51.4244444027
            }
        },
        "27536392": {
            "entityId": "27536392",
            "parentId": "29475405",
            "name": "Araraquara",
            "type": "PLACE_TYPE_CITY",
            "iata": "AQA",
            "coordinates": {
                "latitude": -21.7944444344,
                "longitude": -48.1755556059
            }
        },
        "27536393": {
            "entityId": "27536393",
            "parentId": "29475436",
            "name": "Nain",
            "type": "PLACE_TYPE_CITY",
            "iata": "YDP",
            "coordinates": {
                "latitude": 56.5458099929,
                "longitude": -61.6725300907
            }
        },
        "27536394": {
            "entityId": "27536394",
            "parentId": "29475326",
            "name": "Anqing",
            "type": "PLACE_TYPE_CITY",
            "iata": "AQG",
            "coordinates": {
                "latitude": 30.5091666668,
                "longitude": 117.0505555944
            }
        },
        "27536395": {
            "entityId": "27536395",
            "parentId": "29475192",
            "name": "Qaisumah",
            "type": "PLACE_TYPE_CITY",
            "iata": "AQI",
            "coordinates": {
                "latitude": 28.309722191,
                "longitude": 46.1274999676
            }
        },
        "27536396": {
            "entityId": "27536396",
            "parentId": "29475210",
            "name": "Aqaba",
            "type": "PLACE_TYPE_CITY",
            "iata": "AQJ",
            "coordinates": {
                "latitude": 29.77828534320706,
                "longitude": 35.3248147730318
            }
        },
        "27536397": {
            "entityId": "27536397",
            "parentId": "29475405",
            "name": "Ariquemes",
            "type": "PLACE_TYPE_CITY",
            "iata": "AQM",
            "coordinates": {
                "latitude": -9.9133333239,
                "longitude": -63.040833328
            }
        },
        "27536398": {
            "entityId": "27536398",
            "parentId": "29475436",
            "name": "Dawson Creek",
            "type": "PLACE_TYPE_CITY",
            "iata": "YDQ",
            "coordinates": {
                "latitude": 55.7666026498,
                "longitude": -120.2361601181
            }
        },
        "27536399": {
            "entityId": "27536399",
            "parentId": "29475436",
            "name": "Broadview",
            "type": "PLACE_TYPE_CITY",
            "iata": "YDR",
            "coordinates": {
                "latitude": 50.3667288565,
                "longitude": -102.5843063588
            }
        },
        "27536402": {
            "entityId": "27536402",
            "parentId": "29475436",
            "name": "Edmonton",
            "type": "PLACE_TYPE_CITY",
            "iata": "YEA",
            "coordinates": {
                "latitude": 53.51929407748002,
                "longitude": -113.50150202624727
            }
        },
        "27536403": {
            "entityId": "27536403",
            "parentId": "29475221",
            "name": "Bursa",
            "type": "PLACE_TYPE_CITY",
            "iata": "YEI",
            "coordinates": {
                "latitude": 40.1916701403,
                "longitude": 29.0611104776
            }
        },
        "27536404": {
            "entityId": "27536404",
            "parentId": "29475436",
            "name": "Arviat",
            "type": "PLACE_TYPE_CITY",
            "iata": "YEK",
            "coordinates": {
                "latitude": 61.1088299936,
                "longitude": -94.058479902
            }
        },
        "27536405": {
            "entityId": "27536405",
            "parentId": "29475436",
            "name": "Elliot Lake",
            "type": "PLACE_TYPE_CITY",
            "iata": "YEL",
            "coordinates": {
                "latitude": 46.3833633109,
                "longitude": -82.6331522427
            }
        },
        "27536406": {
            "entityId": "27536406",
            "parentId": "29475436",
            "name": "Estevan",
            "type": "PLACE_TYPE_CITY",
            "iata": "YEN",
            "coordinates": {
                "latitude": 49.1333686021,
                "longitude": -102.9842183366
            }
        },
        "27536407": {
            "entityId": "27536407",
            "parentId": "29475375",
            "name": "Yeovilton",
            "type": "PLACE_TYPE_CITY",
            "iata": "YEO",
            "coordinates": {
                "latitude": 51.004166693,
                "longitude": -2.6502778174
            }
        },
        "27536408": {
            "entityId": "27536408",
            "parentId": "29475436",
            "name": "Estevan Point",
            "type": "PLACE_TYPE_CITY",
            "iata": "YEP",
            "coordinates": {
                "latitude": 49.3828899915,
                "longitude": -126.5529601115
            }
        },
        "27536409": {
            "entityId": "27536409",
            "parentId": "29475372",
            "name": "Annaba",
            "type": "PLACE_TYPE_CITY",
            "iata": "AAE",
            "coordinates": {
                "latitude": 36.8999999462,
                "longitude": 7.7666669447
            }
        },
        "27536410": {
            "entityId": "27536410",
            "parentId": "29475437",
            "name": "Apalachicola",
            "type": "PLACE_TYPE_CITY",
            "iata": "AAF",
            "coordinates": {
                "latitude": 29.7257674933,
                "longitude": -84.9832435412
            }
        },
        "27536411": {
            "entityId": "27536411",
            "parentId": "29475405",
            "name": "Arapoti",
            "type": "PLACE_TYPE_CITY",
            "iata": "AAG",
            "coordinates": {
                "latitude": -24.1577777745,
                "longitude": -49.8266666903
            }
        },
        "27536413": {
            "entityId": "27536413",
            "parentId": "29475373",
            "name": "Aalborg",
            "type": "PLACE_TYPE_CITY",
            "iata": "AAL",
            "coordinates": {
                "latitude": 57.013010285345295,
                "longitude": 9.963245726721322
            }
        },
        "27536415": {
            "entityId": "27536415",
            "parentId": "29475423",
            "name": "Anaco",
            "type": "PLACE_TYPE_CITY",
            "iata": "AAO",
            "coordinates": {
                "latitude": 9.438888882,
                "longitude": -64.4727776553
            }
        },
        "27536417": {
            "entityId": "27536417",
            "parentId": "29475334",
            "name": "Anapa",
            "type": "PLACE_TYPE_CITY",
            "iata": "AAQ",
            "coordinates": {
                "latitude": 44.92035568054122,
                "longitude": 37.317177866545364
            }
        },
        "27536418": {
            "entityId": "27536418",
            "parentId": "29475405",
            "name": "Araxa",
            "type": "PLACE_TYPE_CITY",
            "iata": "AAX",
            "coordinates": {
                "latitude": -19.5933333121,
                "longitude": -46.9405554485
            }
        },
        "27536419": {
            "entityId": "27536419",
            "parentId": "29475419",
            "name": "Quetzaltenango",
            "type": "PLACE_TYPE_CITY",
            "iata": "AAZ",
            "coordinates": {
                "latitude": 14.8333332651,
                "longitude": -91.516666899
            }
        },
        "27536420": {
            "entityId": "27536420",
            "parentId": "29475194",
            "name": "Abadan",
            "type": "PLACE_TYPE_CITY",
            "iata": "ABD",
            "coordinates": {
                "latitude": 30.3524999596,
                "longitude": 48.2958336175
            }
        },
        "27536421": {
            "entityId": "27536421",
            "parentId": "29475437",
            "name": "Allentown",
            "type": "PLACE_TYPE_CITY",
            "iata": "ABE",
            "coordinates": {
                "latitude": 40.608430457,
                "longitude": -75.4901832098
            }
        },
        "27536422": {
            "entityId": "27536422",
            "parentId": "29475336",
            "name": "Alpha",
            "type": "PLACE_TYPE_CITY",
            "iata": "ABH",
            "coordinates": {
                "latitude": -23.6499999947,
                "longitude": 146.6333333063
            }
        },
        "27536423": {
            "entityId": "27536423",
            "parentId": "29475437",
            "name": "Abilene",
            "type": "PLACE_TYPE_CITY",
            "iata": "ABI",
            "coordinates": {
                "latitude": 32.4487363535,
                "longitude": -99.733143784
            }
        },
        "27536424": {
            "entityId": "27536424",
            "parentId": "29475226",
            "name": "Abu Simbel",
            "type": "PLACE_TYPE_CITY",
            "iata": "ABS",
            "coordinates": {
                "latitude": 22.3594213742,
                "longitude": 31.6140522759
            }
        },
        "27536425": {
            "entityId": "27536425",
            "parentId": "29475437",
            "name": "Ambler",
            "type": "PLACE_TYPE_CITY",
            "iata": "ABL",
            "coordinates": {
                "latitude": 67.0861110942,
                "longitude": -157.8513890713
            }
        },
        "27536426": {
            "entityId": "27536426",
            "parentId": "29475336",
            "name": "Bamaga",
            "type": "PLACE_TYPE_CITY",
            "iata": "ABM",
            "coordinates": {
                "latitude": -10.8919737373,
                "longitude": 142.3893356139
            }
        },
        "27536427": {
            "entityId": "27536427",
            "parentId": "29475437",
            "name": "Albuquerque",
            "type": "PLACE_TYPE_CITY",
            "iata": "ABQ",
            "coordinates": {
                "latitude": 35.1077508284899,
                "longitude": -106.64235972778224
            }
        },
        "27536428": {
            "entityId": "27536428",
            "parentId": "29475437",
            "name": "Aberdeen",
            "type": "PLACE_TYPE_CITY",
            "iata": "ABR",
            "coordinates": {
                "latitude": 45.4646984884,
                "longitude": -98.4864829313
            }
        },
        "27536429": {
            "entityId": "27536429",
            "parentId": "29475321",
            "name": "Atambua",
            "type": "PLACE_TYPE_CITY",
            "iata": "ABU",
            "coordinates": {
                "latitude": -9.1061110966,
                "longitude": 124.892499965
            }
        },
        "27536431": {
            "entityId": "27536431",
            "parentId": "29475336",
            "name": "Albury",
            "type": "PLACE_TYPE_CITY",
            "iata": "ABX",
            "coordinates": {
                "latitude": -36.0833332598,
                "longitude": 146.9166667125
            }
        },
        "27536432": {
            "entityId": "27536432",
            "parentId": "29475437",
            "name": "Albany",
            "type": "PLACE_TYPE_CITY",
            "iata": "ABY",
            "coordinates": {
                "latitude": 31.5785073768,
                "longitude": -84.1557411919
            }
        },
        "27536433": {
            "entityId": "27536433",
            "parentId": "29475375",
            "name": "Aberdeen",
            "type": "PLACE_TYPE_CITY",
            "iata": "ABZ",
            "coordinates": {
                "latitude": 57.15577792679926,
                "longitude": -2.173596036594027
            }
        },
        "27536434": {
            "entityId": "27536434",
            "parentId": "29475437",
            "name": "Bellaire",
            "type": "PLACE_TYPE_CITY",
            "iata": "ACB",
            "coordinates": {
                "latitude": 44.9802821922,
                "longitude": -85.2111728659
            }
        },
        "27536435": {
            "entityId": "27536435",
            "parentId": "29475436",
            "name": "Fort Severn",
            "type": "PLACE_TYPE_CITY",
            "iata": "YER",
            "coordinates": {
                "latitude": 55.9835199933,
                "longitude": -87.6331699582
            }
        },
        "27536436": {
            "entityId": "27536436",
            "parentId": "29475436",
            "name": "Edson",
            "type": "PLACE_TYPE_CITY",
            "iata": "YET",
            "coordinates": {
                "latitude": 53.5834452066,
                "longitude": -116.4355925366
            }
        },
        "27536437": {
            "entityId": "27536437",
            "parentId": "29475334",
            "name": "Achinsk",
            "type": "PLACE_TYPE_CITY",
            "iata": "ACS",
            "coordinates": {
                "latitude": 56.2694018734,
                "longitude": 90.4993002279
            }
        },
        "27536438": {
            "entityId": "27536438",
            "parentId": "29475437",
            "name": "Waco",
            "type": "PLACE_TYPE_CITY",
            "iata": "ACT",
            "coordinates": {
                "latitude": 31.5493329475,
                "longitude": -97.1466698082
            }
        },
        "27536439": {
            "entityId": "27536439",
            "parentId": "29475436",
            "name": "Inuvik",
            "type": "PLACE_TYPE_CITY",
            "iata": "YEV",
            "coordinates": {
                "latitude": 68.3498641302,
                "longitude": -133.7218139952
            }
        },
        "27536440": {
            "entityId": "27536440",
            "parentId": "29475437",
            "name": "Atlantic City",
            "type": "PLACE_TYPE_CITY",
            "iata": "AIY",
            "coordinates": {
                "latitude": 39.37662636508742,
                "longitude": -74.45088955877289
            }
        },
        "27536441": {
            "entityId": "27536441",
            "parentId": "29475194",
            "name": "Zabol",
            "type": "PLACE_TYPE_CITY",
            "iata": "ACZ",
            "coordinates": {
                "latitude": 31.0297221465,
                "longitude": 61.4977780582
            }
        },
        "27536442": {
            "entityId": "27536442",
            "parentId": "29475221",
            "name": "Adana",
            "type": "PLACE_TYPE_CITY",
            "iata": "ADA",
            "coordinates": {
                "latitude": 37.25751871414384,
                "longitude": 35.561577739930975
            }
        },
        "27536443": {
            "entityId": "27536443",
            "parentId": "29475221",
            "name": "Izmir",
            "type": "PLACE_TYPE_CITY",
            "iata": "IZM",
            "coordinates": {
                "latitude": 38.48152852398431,
                "longitude": 27.13520295148595
            }
        },
        "27536445": {
            "entityId": "27536445",
            "parentId": "29475224",
            "name": "Addis Ababa",
            "type": "PLACE_TYPE_CITY",
            "iata": "ADD",
            "coordinates": {
                "latitude": 8.978042433933702,
                "longitude": 38.78596299905184
            }
        },
        "27536446": {
            "entityId": "27536446",
            "parentId": "29475183",
            "name": "Aden",
            "type": "PLACE_TYPE_CITY",
            "iata": "ADE",
            "coordinates": {
                "latitude": 12.7794443613,
                "longitude": 45.0366666937
            }
        },
        "27536447": {
            "entityId": "27536447",
            "parentId": "29475221",
            "name": "Adiyaman",
            "type": "PLACE_TYPE_CITY",
            "iata": "ADF",
            "coordinates": {
                "latitude": 37.7591678243,
                "longitude": 38.2783333781
            }
        },
        "27536448": {
            "entityId": "27536448",
            "parentId": "29475437",
            "name": "Adrian",
            "type": "PLACE_TYPE_CITY",
            "iata": "ADG",
            "coordinates": {
                "latitude": 41.8975470861,
                "longitude": -84.037166049
            }
        },
        "27536449": {
            "entityId": "27536449",
            "parentId": "29475334",
            "name": "Aldan",
            "type": "PLACE_TYPE_CITY",
            "iata": "ADH",
            "coordinates": {
                "latitude": 58.5999999945,
                "longitude": 125.3799998771
            }
        },
        "27536450": {
            "entityId": "27536450",
            "parentId": "29475398",
            "name": "Arandis",
            "type": "PLACE_TYPE_CITY",
            "iata": "ADI",
            "coordinates": {
                "latitude": -22.4166666948,
                "longitude": 14.9666667006
            }
        },
        "27536451": {
            "entityId": "27536451",
            "parentId": "29475210",
            "name": "Amman",
            "type": "PLACE_TYPE_CITY",
            "iata": "AMM",
            "coordinates": {
                "latitude": 31.58719496038013,
                "longitude": 36.35123523991006
            }
        },
        "27536452": {
            "entityId": "27536452",
            "parentId": "29475336",
            "name": "Adelaide",
            "type": "PLACE_TYPE_CITY",
            "iata": "ADL",
            "coordinates": {
                "latitude": -34.921965776026276,
                "longitude": 138.59883691478927
            }
        },
        "27536453": {
            "entityId": "27536453",
            "parentId": "29475437",
            "name": "Ardmore",
            "type": "PLACE_TYPE_CITY",
            "iata": "ADM",
            "coordinates": {
                "latitude": 34.1742610883,
                "longitude": -97.1436254719
            }
        },
        "27536454": {
            "entityId": "27536454",
            "parentId": "29475281",
            "name": "Anuradhapura",
            "type": "PLACE_TYPE_CITY",
            "iata": "ACJ",
            "coordinates": {
                "latitude": 8.3564745589,
                "longitude": 80.4172611547
            }
        },
        "27536455": {
            "entityId": "27536455",
            "parentId": "29475437",
            "name": "Kodiak",
            "type": "PLACE_TYPE_CITY",
            "iata": "ADQ",
            "coordinates": {
                "latitude": 57.7899999932,
                "longitude": -152.4072222457
            }
        },
        "27536456": {
            "entityId": "27536456",
            "parentId": "29475437",
            "name": "Andrews",
            "type": "PLACE_TYPE_CITY",
            "iata": "ADR",
            "coordinates": {
                "latitude": 33.4512779931,
                "longitude": -79.5608971335
            }
        },
        "27536457": {
            "entityId": "27536457",
            "parentId": "29475437",
            "name": "Dallas",
            "type": "PLACE_TYPE_CITY",
            "iata": "DFW",
            "coordinates": {
                "latitude": 32.79364442509062,
                "longitude": -96.76635853272607
            }
        },
        "27536458": {
            "entityId": "27536458",
            "parentId": "29475437",
            "name": "Ada",
            "type": "PLACE_TYPE_CITY",
            "iata": "ADT",
            "coordinates": {
                "latitude": 34.7745309903,
                "longitude": -96.6783450722
            }
        },
        "27536459": {
            "entityId": "27536459",
            "parentId": "29475194",
            "name": "Ardabil",
            "type": "PLACE_TYPE_CITY",
            "iata": "ADU",
            "coordinates": {
                "latitude": 38.2494443431,
                "longitude": 48.301389418
            }
        },
        "27536460": {
            "entityId": "27536460",
            "parentId": "29475437",
            "name": "Camp Springs",
            "type": "PLACE_TYPE_CITY",
            "iata": "ADW",
            "coordinates": {
                "latitude": 38.8040026893,
                "longitude": -76.9066395247
            }
        },
        "27536462": {
            "entityId": "27536462",
            "parentId": "29475272",
            "name": "Alldays",
            "type": "PLACE_TYPE_CITY",
            "iata": "ADY",
            "coordinates": {
                "latitude": -22.6666666945,
                "longitude": 29.0999999651
            }
        },
        "27536463": {
            "entityId": "27536463",
            "parentId": "29475437",
            "name": "Albert Lea",
            "type": "PLACE_TYPE_CITY",
            "iata": "AEL",
            "coordinates": {
                "latitude": 43.6480126904,
                "longitude": -93.3682655829
            }
        },
        "27536464": {
            "entityId": "27536464",
            "parentId": "29475358",
            "name": "Aioun El Atrouss",
            "type": "PLACE_TYPE_CITY",
            "iata": "AEO",
            "coordinates": {
                "latitude": 16.661399996,
                "longitude": -9.614899991
            }
        },
        "27536465": {
            "entityId": "27536465",
            "parentId": "29475428",
            "name": "Buenos Aires",
            "type": "PLACE_TYPE_CITY",
            "iata": "BUE",
            "coordinates": {
                "latitude": -34.612537883,
                "longitude": -58.4436579419
            }
        },
        "27536466": {
            "entityId": "27536466",
            "parentId": "29475334",
            "name": "Sochi",
            "type": "PLACE_TYPE_CITY",
            "iata": "AER",
            "coordinates": {
                "latitude": 43.5999999679,
                "longitude": 39.7302776881
            }
        },
        "27536467": {
            "entityId": "27536467",
            "parentId": "29475437",
            "name": "Allakaket",
            "type": "PLACE_TYPE_CITY",
            "iata": "AET",
            "coordinates": {
                "latitude": 66.5655555948,
                "longitude": -152.6455556505
            }
        },
        "27536468": {
            "entityId": "27536468",
            "parentId": "29475437",
            "name": "Alexandria",
            "type": "PLACE_TYPE_CITY",
            "iata": "AEX",
            "coordinates": {
                "latitude": 31.3112935855,
                "longitude": -92.445137127
            }
        },
        "27536469": {
            "entityId": "27536469",
            "parentId": "29475374",
            "name": "Akureyri",
            "type": "PLACE_TYPE_CITY",
            "iata": "AEY",
            "coordinates": {
                "latitude": 65.6666666878,
                "longitude": -18.1000004982
            }
        },
        "27536470": {
            "entityId": "27536470",
            "parentId": "29475428",
            "name": "San Rafael",
            "type": "PLACE_TYPE_CITY",
            "iata": "AFA",
            "coordinates": {
                "latitude": -34.5999999563,
                "longitude": -68.3333334039
            }
        },
        "27536471": {
            "entityId": "27536471",
            "parentId": "29475272",
            "name": "Port Alfred",
            "type": "PLACE_TYPE_CITY",
            "iata": "AFD",
            "coordinates": {
                "latitude": -33.5999999911,
                "longitude": 26.9000000031
            }
        },
        "27536472": {
            "entityId": "27536472",
            "parentId": "29475437",
            "name": "Colorado Springs",
            "type": "PLACE_TYPE_CITY",
            "iata": "COS",
            "coordinates": {
                "latitude": 38.86736203037242,
                "longitude": -104.76045921311407
            }
        },
        "27536473": {
            "entityId": "27536473",
            "parentId": "29475437",
            "name": "Jaffrey",
            "type": "PLACE_TYPE_CITY",
            "iata": "AFN",
            "coordinates": {
                "latitude": 42.8139729907,
                "longitude": -72.0231361027
            }
        },
        "27536474": {
            "entityId": "27536474",
            "parentId": "29475437",
            "name": "Afton",
            "type": "PLACE_TYPE_CITY",
            "iata": "AFO",
            "coordinates": {
                "latitude": 42.7249281929,
                "longitude": -110.9318687023
            }
        },
        "27536475": {
            "entityId": "27536475",
            "parentId": "29475437",
            "name": "Fort Worth",
            "type": "PLACE_TYPE_CITY",
            "iata": "FTW",
            "coordinates": {
                "latitude": 32.7254106506,
                "longitude": -97.3208499227
            }
        },
        "27536476": {
            "entityId": "27536476",
            "parentId": "29475221",
            "name": "Afyon",
            "type": "PLACE_TYPE_CITY",
            "iata": "AFY",
            "coordinates": {
                "latitude": 38.7566682288,
                "longitude": 30.5433336469
            }
        },
        "27536477": {
            "entityId": "27536477",
            "parentId": "29475436",
            "name": "Fort Albany",
            "type": "PLACE_TYPE_CITY",
            "iata": "YFA",
            "coordinates": {
                "latitude": 52.199979993,
                "longitude": -81.6666399647
            }
        },
        "27536478": {
            "entityId": "27536478",
            "parentId": "29475436",
            "name": "Fredericton",
            "type": "PLACE_TYPE_CITY",
            "iata": "YFC",
            "coordinates": {
                "latitude": 45.9454147477,
                "longitude": -66.6655818741
            }
        },
        "27536479": {
            "entityId": "27536479",
            "parentId": "29475370",
            "name": "Agadir",
            "type": "PLACE_TYPE_CITY",
            "iata": "AGA",
            "coordinates": {
                "latitude": 30.418096560161217,
                "longitude": -9.575795471029823
            }
        },
        "27536481": {
            "entityId": "27536481",
            "parentId": "29475436",
            "name": "Forestville",
            "type": "PLACE_TYPE_CITY",
            "iata": "YFE",
            "coordinates": {
                "latitude": 48.7380799929,
                "longitude": -69.0847799963
            }
        },
        "27536484": {
            "entityId": "27536484",
            "parentId": "29475436",
            "name": "Flin Flon",
            "type": "PLACE_TYPE_CITY",
            "iata": "YFO",
            "coordinates": {
                "latitude": 54.7682370624,
                "longitude": -101.8649742124
            }
        },
        "27536486": {
            "entityId": "27536486",
            "parentId": "29475436",
            "name": "Fort Simpson",
            "type": "PLACE_TYPE_CITY",
            "iata": "YFS",
            "coordinates": {
                "latitude": 61.862693447,
                "longitude": -121.3515858962
            }
        },
        "27536487": {
            "entityId": "27536487",
            "parentId": "29475436",
            "name": "Fort Good Hope",
            "type": "PLACE_TYPE_CITY",
            "iata": "YGH",
            "coordinates": {
                "latitude": 66.2569799947,
                "longitude": -128.6374000503
            }
        },
        "27536488": {
            "entityId": "27536488",
            "parentId": "29475330",
            "name": "Yonago",
            "type": "PLACE_TYPE_CITY",
            "iata": "YGJ",
            "coordinates": {
                "latitude": 35.43411519945319,
                "longitude": 133.3592467272243
            }
        },
        "27536489": {
            "entityId": "27536489",
            "parentId": "29475381",
            "name": "Augsburg",
            "type": "PLACE_TYPE_CITY",
            "iata": "AGB",
            "coordinates": {
                "latitude": 48.3666689151,
                "longitude": 10.8833330273
            }
        },
        "27536490": {
            "entityId": "27536490",
            "parentId": "29475437",
            "name": "Pittsburgh",
            "type": "PLACE_TYPE_CITY",
            "iata": "PIT",
            "coordinates": {
                "latitude": 40.439609940770595,
                "longitude": -79.97645626790064
            }
        },
        "27536491": {
            "entityId": "27536491",
            "parentId": "29475385",
            "name": "Agen",
            "type": "PLACE_TYPE_CITY",
            "iata": "AGF",
            "coordinates": {
                "latitude": 44.1999999891,
                "longitude": 0.6333334101
            }
        },
        "27536492": {
            "entityId": "27536492",
            "parentId": "29475146",
            "name": "Tasiilaq",
            "type": "PLACE_TYPE_CITY",
            "iata": "AGM",
            "coordinates": {
                "latitude": 65.5999999938,
                "longitude": -37.6333334798
            }
        },
        "27536493": {
            "entityId": "27536493",
            "parentId": "29475437",
            "name": "Angoon",
            "type": "PLACE_TYPE_CITY",
            "iata": "AGN",
            "coordinates": {
                "latitude": 57.5033332935,
                "longitude": -134.5838889302
            }
        },
        "27536494": {
            "entityId": "27536494",
            "parentId": "29475437",
            "name": "Magnolia",
            "type": "PLACE_TYPE_CITY",
            "iata": "AGO",
            "coordinates": {
                "latitude": 33.2670724927,
                "longitude": -93.2393340939
            }
        },
        "27536495": {
            "entityId": "27536495",
            "parentId": "29475229",
            "name": "Agrinion",
            "type": "PLACE_TYPE_CITY",
            "iata": "AGQ",
            "coordinates": {
                "latitude": 38.6213888853,
                "longitude": 21.407777776
            }
        },
        "27536496": {
            "entityId": "27536496",
            "parentId": "29475284",
            "name": "Agra",
            "type": "PLACE_TYPE_CITY",
            "iata": "AGR",
            "coordinates": {
                "latitude": 27.18333543,
                "longitude": 78.0166676248
            }
        },
        "27536497": {
            "entityId": "27536497",
            "parentId": "29475437",
            "name": "Augusta",
            "type": "PLACE_TYPE_CITY",
            "iata": "AGS",
            "coordinates": {
                "latitude": 33.4709701859,
                "longitude": -81.9748378528
            }
        },